<?xml version="1.0" ?>
<kml xmlns="http://www.opengis.net/kml/2.2">
  <Document>
    <name>Toutes les Pharmacies du Cameroun</name>
    <description>Base complète - 164 pharmacies - 2025-12-11</description>
    <Style id="osmStyle">
      <IconStyle>
        <color>ff00ff00</color>
        <Icon>
          <href>http://maps.google.com/mapfiles/kml/shapes/pharmacy.png</href>
        </Icon>
      </IconStyle>
    </Style>
    <Style id="cityStyle">
      <IconStyle>
        <color>ff0080ff</color>
        <Icon>
          <href>http://maps.google.com/mapfiles/kml/shapes/pharmacy.png</href>
        </Icon>
      </IconStyle>
    </Style>
    <Style id="defaultStyle">
      <IconStyle>
        <color>ffffffff</color>
        <Icon>
          <href>http://maps.google.com/mapfiles/kml/shapes/pharmacy.png</href>
        </Icon>
      </IconStyle>
    </Style>
    <Folder>
      <name>Bamenda (16 pharmacies)</name>
      <Placemark>
        <name>CORPORATE PHARMACY</name>
        <description>Adresse: 33 09 54 56
Téléphone: 222 27 56 97
Ville: Bamenda
Région: Nord-Ouest
Source coords: city_center</description>
        <styleUrl>#cityStyle</styleUrl>
        <Point>
          <coordinates>10.1582,5.9557,0</coordinates>
        </Point>
      </Placemark>
      <Placemark>
        <name>FAMILY PHARMACY</name>
        <description>Adresse: 699 87 50 69
Téléphone: 233 36 24 26
Ville: Bamenda
Région: Nord-Ouest
Source coords: city_center</description>
        <styleUrl>#cityStyle</styleUrl>
        <Point>
          <coordinates>10.159877989385116,5.955771538966617,0</coordinates>
        </Point>
      </Placemark>
      <Placemark>
        <name>GRACE PHARMACY LIMITED</name>
        <description>Téléphone: 673 47 01 81
Ville: Bamenda
Région: Nord-Ouest
Source coords: city_center</description>
        <styleUrl>#cityStyle</styleUrl>
        <Point>
          <coordinates>10.161565883939232,5.9548612092234725,0</coordinates>
        </Point>
      </Placemark>
      <Placemark>
        <name>KAREM PHARMACY</name>
        <description>Adresse: 695 26 52 59
Téléphone: 233 36 30 09
Ville: Bamenda
Région: Nord-Ouest
Source coords: city_center</description>
        <styleUrl>#cityStyle</styleUrl>
        <Point>
          <coordinates>10.162688727439718,5.953018317407505,0</coordinates>
        </Point>
      </Placemark>
      <Placemark>
        <name>MEZAM PHARMACY</name>
        <description>Adresse: 677 76 90 99
Téléphone: 233 36 22 08
Ville: Bamenda
Région: Nord-Ouest
Source coords: city_center</description>
        <styleUrl>#cityStyle</styleUrl>
        <Point>
          <coordinates>10.162746487134129,5.950619265817265,0</coordinates>
        </Point>
      </Placemark>
      <Placemark>
        <name>MILLENIUM PHARMACY</name>
        <description>Adresse: 677 64 59 60
Téléphone: 233 36 37 49
Ville: Bamenda
Région: Nord-Ouest
Source coords: city_center</description>
        <styleUrl>#cityStyle</styleUrl>
        <Point>
          <coordinates>10.161491596792573,5.948293710114492,0</coordinates>
        </Point>
      </Placemark>
      <Placemark>
        <name>NOBLE PHARMACY 33 05 23 95 Bamenda:</name>
        <description>Ville: Bamenda
Région: Nord-Ouest
Source coords: city_center</description>
        <styleUrl>#cityStyle</styleUrl>
        <Point>
          <coordinates>10.15904672004836,5.9467600450203975,0</coordinates>
        </Point>
      </Placemark>
      <Placemark>
        <name>PARK PHARMACY</name>
        <description>Adresse: 699 37 62 05
Téléphone: 233 36 37 12
Ville: Bamenda
Région: Nord-Ouest
Source coords: city_center</description>
        <styleUrl>#cityStyle</styleUrl>
        <Point>
          <coordinates>10.155919909020017,5.94661303153261,0</coordinates>
        </Point>
      </Placemark>
      <Placemark>
        <name>PHARMACIE AMEN</name>
        <description>Adresse: 677 54 41 61
Téléphone: 233 36 11 85
Ville: Bamenda
Région: Nord-Ouest
Source coords: city_center</description>
        <styleUrl>#cityStyle</styleUrl>
        <Point>
          <coordinates>10.152902382532845,5.948124494653955,0</coordinates>
        </Point>
      </Placemark>
      <Placemark>
        <name>PHARMACIE ANDREG PHARMACY</name>
        <description>Adresse: 677 64 71 99
Téléphone: 233 36 23 31
Ville: Bamenda
Région: Nord-Ouest
Source coords: city_center</description>
        <styleUrl>#cityStyle</styleUrl>
        <Point>
          <coordinates>10.150868524117513,5.95111903150427,0</coordinates>
        </Point>
      </Placemark>
      <Placemark>
        <name>PHARMACIE BLACK STAR</name>
        <description>Adresse: 677 96 46 79
Téléphone: 233 36 12 04
Ville: Bamenda
Région: Nord-Ouest
Source coords: city_center</description>
        <styleUrl>#cityStyle</styleUrl>
        <Point>
          <coordinates>10.150528605802696,5.954969297483706,0</coordinates>
        </Point>
      </Placemark>
      <Placemark>
        <name>PHARMACIE CITY CHEMIST</name>
        <description>Adresse: 677 76 47 96
Téléphone: 233 36 11 34
Ville: Bamenda
Région: Nord-Ouest
Source coords: city_center</description>
        <styleUrl>#cityStyle</styleUrl>
        <Point>
          <coordinates>10.152202907232653,5.958723693081476,0</coordinates>
        </Point>
      </Placemark>
      <Placemark>
        <name>PHARMACIE CRYSTAL PHARMACY</name>
        <description>Adresse: 677 76 05 08
Téléphone: 233 36 21 55
Ville: Bamenda
Région: Nord-Ouest
Source coords: city_center</description>
        <styleUrl>#cityStyle</styleUrl>
        <Point>
          <coordinates>10.15568526051621,5.961341532579853,0</coordinates>
        </Point>
      </Placemark>
      <Placemark>
        <name>PHARMACIE PROFESSIONAL PLAZA</name>
        <description>Adresse: 677 75 55 73
Téléphone: 233 36 33 20
Ville: Bamenda
Région: Nord-Ouest
Source coords: city_center</description>
        <styleUrl>#cityStyle</styleUrl>
        <Point>
          <coordinates>10.160243639886835,5.961977582444416,0</coordinates>
        </Point>
      </Placemark>
      <Placemark>
        <name>PHARMACIE SAN PAOLO</name>
        <description>Adresse: 677 32 21 93
Téléphone: 233 36 29 31
Ville: Bamenda
Région: Nord-Ouest
Source coords: city_center</description>
        <styleUrl>#cityStyle</styleUrl>
        <Point>
          <coordinates>10.16476986598719,5.960239022543433,0</coordinates>
        </Point>
      </Placemark>
      <Placemark>
        <name>VILEN PHARMACY</name>
        <description>Adresse: 677 54 41 77
Téléphone: 233 36 26 73
Ville: Bamenda
Région: Nord-Ouest
Source coords: city_center</description>
        <styleUrl>#cityStyle</styleUrl>
        <Point>
          <coordinates>10.168048999756136,5.956339670837268,0</coordinates>
        </Point>
      </Placemark>
    </Folder>
    <Folder>
      <name>Yaounde (15 pharmacies)</name>
      <Placemark>
        <name>PHARMACIE PALAIS</name>
        <description>Adresse: ETOUDI STATIONNEMENT
Téléphone: 691 54 16 18
Ville: Yaounde
Région: Centre
Source coords: osm</description>
        <styleUrl>#osmStyle</styleUrl>
        <Point>
          <coordinates>11.525617,3.9145154,0</coordinates>
        </Point>
      </Placemark>
      <Placemark>
        <name>PHARMACIE ACACIAS</name>
        <description>Adresse: BIYEM-ASSI CENTRE
Téléphone: 699 61 96 54
Ville: Yaounde
Région: Centre
Source coords: city_center</description>
        <styleUrl>#cityStyle</styleUrl>
        <Point>
          <coordinates>11.5021,3.851,0</coordinates>
        </Point>
      </Placemark>
      <Placemark>
        <name>PHARMACIE D'ODZA</name>
        <description>Adresse: Carrefour MBOG-ABANG 697 99 85 90
Téléphone: 222 30 51 33
Ville: Yaounde
Région: Centre
Source coords: city_center</description>
        <styleUrl>#cityStyle</styleUrl>
        <Point>
          <coordinates>11.503777989385116,3.8510715389666164,0</coordinates>
        </Point>
      </Placemark>
      <Placemark>
        <name>WORLD PHARMACY</name>
        <description>Adresse: CAMP SIC NLONGKAK 693 96 42 34
Téléphone: 670 11 60 14
Ville: Yaounde
Région: Centre
Source coords: city_center</description>
        <styleUrl>#cityStyle</styleUrl>
        <Point>
          <coordinates>11.505465883939232,3.8501612092234723,0</coordinates>
        </Point>
      </Placemark>
      <Placemark>
        <name>PHARMACIE PETALES</name>
        <description>Adresse: vers LE CAPITOLE
Téléphone: 222 23 15 97
Ville: Yaounde
Région: Centre
Source coords: city_center</description>
        <styleUrl>#cityStyle</styleUrl>
        <Point>
          <coordinates>11.506588727439718,3.8483183174075046,0</coordinates>
        </Point>
      </Placemark>
      <Placemark>
        <name>PHARMACIE DU JOURDAIN</name>
        <description>Adresse: Immeuble MACABO - NKOMKANA 222 22 28 63
Téléphone: 242 02 60 30
Ville: Yaounde
Région: Centre
Source coords: osm</description>
        <styleUrl>#osmStyle</styleUrl>
        <Point>
          <coordinates>11.4977339,3.8847155,0</coordinates>
        </Point>
      </Placemark>
      <Placemark>
        <name>PHARMACIE MARIJOVA</name>
        <description>Adresse: Entrée CARREFOUR MECC
Téléphone: 699 98 86 83
Ville: Yaounde
Région: Centre
Source coords: osm</description>
        <styleUrl>#osmStyle</styleUrl>
        <Point>
          <coordinates>11.4816399,3.8703088,0</coordinates>
        </Point>
      </Placemark>
      <Placemark>
        <name>Nasturtium Pharmacy</name>
        <description>Adresse: Siantou Supérieur699 83 81 06
Téléphone: 242 66 63 05
Ville: Yaounde
Région: Centre
Source coords: city_center</description>
        <styleUrl>#cityStyle</styleUrl>
        <Point>
          <coordinates>11.506646487134129,3.845919265817264,0</coordinates>
        </Point>
      </Placemark>
      <Placemark>
        <name>PHARMACIE PERSEVERANCE</name>
        <description>Adresse: AWAE ESCALIER 243 84 67 75
Téléphone: 243 84 41 35
Ville: Yaounde
Région: Centre
Source coords: city_center</description>
        <styleUrl>#cityStyle</styleUrl>
        <Point>
          <coordinates>11.505391596792572,3.843593710114492,0</coordinates>
        </Point>
      </Placemark>
      <Placemark>
        <name>PHARMACIE ISIS</name>
        <description>Adresse: EMOMBO 2ème CARREFOUR
Téléphone: 222 23 35 78
Ville: Yaounde
Région: Centre
Source coords: osm</description>
        <styleUrl>#osmStyle</styleUrl>
        <Point>
          <coordinates>11.5483223,3.8642524,0</coordinates>
        </Point>
      </Placemark>
      <Placemark>
        <name>PHARMACIE HERMES</name>
        <description>Adresse: Face BOULANGERIE NEZATI_EMANA 677 98 70 75
Téléphone: 243 64 11 81
Ville: Yaounde
Région: Centre
Source coords: city_center</description>
        <styleUrl>#cityStyle</styleUrl>
        <Point>
          <coordinates>11.50294672004836,3.842060045020397,0</coordinates>
        </Point>
      </Placemark>
      <Placemark>
        <name>PHARMACIE DE LA VIE</name>
        <description>Adresse: face FOKOU MOKOLO
Téléphone: 222 22 67 87
Ville: Yaounde
Région: Centre
Source coords: city_center</description>
        <styleUrl>#cityStyle</styleUrl>
        <Point>
          <coordinates>11.499819909020017,3.8419130315326098,0</coordinates>
        </Point>
      </Placemark>
      <Placemark>
        <name>PHARMACIE DE MINKAN</name>
        <description>Adresse: Carrefour JESUS 697 24 77 75
Téléphone: 673 49 07 17
Ville: Yaounde
Région: Centre
Source coords: city_center</description>
        <styleUrl>#cityStyle</styleUrl>
        <Point>
          <coordinates>11.496802382532845,3.8434244946539544,0</coordinates>
        </Point>
      </Placemark>
      <Placemark>
        <name>PHARMACIE LEADER</name>
        <description>Adresse: à côté de la BGFI BANK, Omnisports
Téléphone: 694 04 21 88
Ville: Yaounde
Région: Centre
Source coords: city_center</description>
        <styleUrl>#cityStyle</styleUrl>
        <Point>
          <coordinates>11.494768524117513,3.846419031504269,0</coordinates>
        </Point>
      </Placemark>
      <Placemark>
        <name>CHEKEM PHARMACY</name>
        <description>Adresse: face SUN CITY - ESSOS
Téléphone: 672 51 89 19
Ville: Yaounde
Région: Centre
Source coords: city_center</description>
        <styleUrl>#cityStyle</styleUrl>
        <Point>
          <coordinates>11.494428605802696,3.8502692974837056,0</coordinates>
        </Point>
      </Placemark>
    </Folder>
    <Folder>
      <name>Douala (13 pharmacies)</name>
      <Placemark>
        <name>ST. JOSEF PHARMACY</name>
        <description>Adresse: LOGBESSOU SISTERS' HOP STREET
Téléphone: 699 10 48 18
Ville: Douala
Région: Littoral
Source coords: city_center</description>
        <styleUrl>#cityStyle</styleUrl>
        <Point>
          <coordinates>9.7679,4.0541,0</coordinates>
        </Point>
      </Placemark>
      <Placemark>
        <name>PHARMACIE AXIALE</name>
        <description>Adresse: Axe lourd BEPANDA 674 14 57 57
Téléphone: 233 41 39 39
Ville: Douala
Région: Littoral
Source coords: osm</description>
        <styleUrl>#osmStyle</styleUrl>
        <Point>
          <coordinates>9.718707,4.0707651,0</coordinates>
        </Point>
      </Placemark>
      <Placemark>
        <name>PHARMACIE LA TRINITE</name>
        <description>Adresse: RUE JAMOT CLINIQUE DU BERCEAU
Téléphone: 233 42 46 44
Ville: Douala
Région: Littoral
Source coords: city_center</description>
        <styleUrl>#cityStyle</styleUrl>
        <Point>
          <coordinates>9.769577989385114,4.054171538966616,0</coordinates>
        </Point>
      </Placemark>
      <Placemark>
        <name>PHARMACIE CARREFOUR ANATOLE</name>
        <description>Adresse: TOTAL ANATOLE BALI
Téléphone: 233128697
Ville: Douala
Région: Littoral
Source coords: city_center</description>
        <styleUrl>#cityStyle</styleUrl>
        <Point>
          <coordinates>9.77126588393923,4.053261209223472,0</coordinates>
        </Point>
      </Placemark>
      <Placemark>
        <name>PHARMACIE NJO NJO</name>
        <description>Adresse: AVENUE NJO NJO
Téléphone: 233423925
Ville: Douala
Région: Littoral
Source coords: city_center</description>
        <styleUrl>#cityStyle</styleUrl>
        <Point>
          <coordinates>9.772388727439717,4.051418317407505,0</coordinates>
        </Point>
      </Placemark>
      <Placemark>
        <name>PHARMACIE SHEKINA</name>
        <description>Adresse: ENTREE LYCEE NDOGPASSI
Téléphone: 699 60 88 41
Ville: Douala
Région: Littoral
Source coords: city_center</description>
        <styleUrl>#cityStyle</styleUrl>
        <Point>
          <coordinates>9.772446487134127,4.049019265817265,0</coordinates>
        </Point>
      </Placemark>
      <Placemark>
        <name>010PHARMACIE ARC</name>
        <description>Adresse: POLYCLINIQUE D'AKWA
Téléphone: 233 42 60 30
Ville: Douala
Région: Littoral
Source coords: city_center</description>
        <styleUrl>#cityStyle</styleUrl>
        <Point>
          <coordinates>9.77119159679257,4.046693710114492,0</coordinates>
        </Point>
      </Placemark>
      <Placemark>
        <name>PHARMACIE DU MARCHE</name>
        <description>Adresse: A COTE COMMISSARIAT MADAGASCAR
Téléphone: 233 42 64 57
Ville: Douala
Région: Littoral
Source coords: city_center</description>
        <styleUrl>#cityStyle</styleUrl>
        <Point>
          <coordinates>9.768746720048359,4.045160045020397,0</coordinates>
        </Point>
      </Placemark>
      <Placemark>
        <name>PHARMACIE CITE DES PALMIERS</name>
        <description>Adresse: CITE DES PALMIERS
Téléphone: 233372484
Ville: Douala
Région: Littoral
Source coords: city_center</description>
        <styleUrl>#cityStyle</styleUrl>
        <Point>
          <coordinates>9.765619909020016,4.045013031532609,0</coordinates>
        </Point>
      </Placemark>
      <Placemark>
        <name>PHARMACIE BONAMOUSSADI</name>
        <description>Adresse: ROND POINT MAETUR FACE ECOBANK
Téléphone: 233 47 24 81
Ville: Douala
Région: Littoral
Source coords: osm</description>
        <styleUrl>#osmStyle</styleUrl>
        <Point>
          <coordinates>9.7373708,4.0919031,0</coordinates>
        </Point>
      </Placemark>
      <Placemark>
        <name>PHARMACIE NOTRE DAME DES VICTOIRES 243 064 244Douala: Carrefour WILLIAMS ANDEM</name>
        <description>Ville: Douala
Région: Littoral
Source coords: city_center</description>
        <styleUrl>#cityStyle</styleUrl>
        <Point>
          <coordinates>9.762602382532844,4.046524494653955,0</coordinates>
        </Point>
      </Placemark>
      <Placemark>
        <name>PHARMACIE DES IMMEUBLES</name>
        <description>Adresse: TRADEX KOTTO IMMEUBLE BAR
Téléphone: 652 52 38 24
Ville: Douala
Région: Littoral
Source coords: city_center</description>
        <styleUrl>#cityStyle</styleUrl>
        <Point>
          <coordinates>9.760568524117511,4.0495190315042695,0</coordinates>
        </Point>
      </Placemark>
      <Placemark>
        <name>PHARMACIE SASS</name>
        <description>Adresse: Bapenda Omnisport
Téléphone: 233 02 87 43
Ville: Douala
Région: Littoral
Source coords: city_center</description>
        <styleUrl>#cityStyle</styleUrl>
        <Point>
          <coordinates>9.760228605802695,4.053369297483706,0</coordinates>
        </Point>
      </Placemark>
    </Folder>
    <Folder>
      <name>Garoua (13 pharmacies)</name>
      <Placemark>
        <name>PHARMACIE POPULAIRE</name>
        <description>Adresse: 699 86 97 20
Téléphone: 222 27 25 11
Ville: Garoua
Région: Nord
Source coords: osm</description>
        <styleUrl>#osmStyle</styleUrl>
        <Point>
          <coordinates>13.4008138,9.3122831,0</coordinates>
        </Point>
      </Placemark>
      <Placemark>
        <name>PHARMACIE PROVINCIALE</name>
        <description>Téléphone: 677 64 18 56
Ville: Garoua
Région: Nord
Source coords: osm</description>
        <styleUrl>#osmStyle</styleUrl>
        <Point>
          <coordinates>13.4006208,9.303648,0</coordinates>
        </Point>
      </Placemark>
      <Placemark>
        <name>PHARMACIE MERE D'ENFANT2</name>
        <description>Téléphone: 698 48 72 00
Ville: Garoua
Région: Nord
Source coords: city_center</description>
        <styleUrl>#cityStyle</styleUrl>
        <Point>
          <coordinates>13.3984,9.3044,0</coordinates>
        </Point>
      </Placemark>
      <Placemark>
        <name>PHARMACIE DU NORD</name>
        <description>Téléphone: 222 27 13 79
Ville: Garoua
Région: Nord
Source coords: osm</description>
        <styleUrl>#osmStyle</styleUrl>
        <Point>
          <coordinates>13.3904095,9.2996212,0</coordinates>
        </Point>
      </Placemark>
      <Placemark>
        <name>PHARMACIE DU LAMIDAT</name>
        <description>Téléphone: 222 27 22 61
Ville: Garoua
Région: Nord
Source coords: city_center</description>
        <styleUrl>#cityStyle</styleUrl>
        <Point>
          <coordinates>13.400077989385116,9.304471538966615,0</coordinates>
        </Point>
      </Placemark>
      <Placemark>
        <name>PHARMACIE DU CENTRE GAROUA22 27 33 10Garoua:</name>
        <description>Ville: Garoua
Région: Nord
Source coords: city_center</description>
        <styleUrl>#cityStyle</styleUrl>
        <Point>
          <coordinates>13.401765883939232,9.303561209223473,0</coordinates>
        </Point>
      </Placemark>
      <Placemark>
        <name>PHARMACIE DE NGONG</name>
        <description>Téléphone: 670 57 67 40
Ville: Garoua
Région: Nord
Source coords: city_center</description>
        <styleUrl>#cityStyle</styleUrl>
        <Point>
          <coordinates>13.402888727439718,9.301718317407504,0</coordinates>
        </Point>
      </Placemark>
      <Placemark>
        <name>PHARMACIE DE LA GRANDE MOSQUÉE</name>
        <description>Téléphone: 222 27 27 04
Ville: Garoua
Région: Nord
Source coords: osm</description>
        <styleUrl>#osmStyle</styleUrl>
        <Point>
          <coordinates>13.411216,9.3299898,0</coordinates>
        </Point>
      </Placemark>
      <Placemark>
        <name>PHARMACIE DE L'ETOILE22 27 13 77Garoua:</name>
        <description>Ville: Garoua
Région: Nord
Source coords: city_center</description>
        <styleUrl>#cityStyle</styleUrl>
        <Point>
          <coordinates>13.402946487134129,9.299319265817264,0</coordinates>
        </Point>
      </Placemark>
      <Placemark>
        <name>PHARMACIE DE L'AMITIE</name>
        <description>Téléphone: 222 27 25 86
Ville: Garoua
Région: Nord
Source coords: city_center</description>
        <styleUrl>#cityStyle</styleUrl>
        <Point>
          <coordinates>13.401691596792572,9.29699371011449,0</coordinates>
        </Point>
      </Placemark>
      <Placemark>
        <name>PHARMACIE ASSALAM</name>
        <description>Adresse: 677 18 53 97
Téléphone: 242 17 12 79
Ville: Garoua
Région: Nord
Source coords: osm</description>
        <styleUrl>#osmStyle</styleUrl>
        <Point>
          <coordinates>13.4024969,9.3075596,0</coordinates>
        </Point>
      </Placemark>
      <Placemark>
        <name>PHARMACIE CARREFOUR BARMARI 77 92 54 15 Garoua:</name>
        <description>Ville: Garoua
Région: Nord
Source coords: city_center</description>
        <styleUrl>#cityStyle</styleUrl>
        <Point>
          <coordinates>13.39924672004836,9.295460045020397,0</coordinates>
        </Point>
      </Placemark>
      <Placemark>
        <name>PHARMACIE DE GAROUA 22 27 24 78 Garoua:</name>
        <description>Ville: Garoua
Région: Nord
Source coords: city_center</description>
        <styleUrl>#cityStyle</styleUrl>
        <Point>
          <coordinates>13.396119909020017,9.29531303153261,0</coordinates>
        </Point>
      </Placemark>
    </Folder>
    <Folder>
      <name>Maroua (9 pharmacies)</name>
      <Placemark>
        <name>PHARMACIE KALIAO</name>
        <description>Téléphone: 222 29 32 59
Ville: Maroua
Région: Extrême-Nord
Source coords: osm</description>
        <styleUrl>#osmStyle</styleUrl>
        <Point>
          <coordinates>14.3177771,10.5997372,0</coordinates>
        </Point>
      </Placemark>
      <Placemark>
        <name>PHARMACIE FERNGO</name>
        <description>Adresse: Quartier Kakatare
Téléphone: 222 29 15 43
Ville: Maroua
Région: Extrême-Nord
Source coords: osm</description>
        <styleUrl>#osmStyle</styleUrl>
        <Point>
          <coordinates>14.3148331,10.5945889,0</coordinates>
        </Point>
      </Placemark>
      <Placemark>
        <name>PHARMACIE EXTREME NORD22 29 12 40Maroua: Quartier Kakatare</name>
        <description>Ville: Maroua
Région: Extrême-Nord
Source coords: city_center</description>
        <styleUrl>#cityStyle</styleUrl>
        <Point>
          <coordinates>14.3159,10.5986,0</coordinates>
        </Point>
      </Placemark>
      <Placemark>
        <name>PHARMACIE EMERAUDE</name>
        <description>Adresse: Quartier Kakatare
Téléphone: 696 29 73 96
Ville: Maroua
Région: Extrême-Nord
Source coords: osm</description>
        <styleUrl>#osmStyle</styleUrl>
        <Point>
          <coordinates>14.3214742,10.6009259,0</coordinates>
        </Point>
      </Placemark>
      <Placemark>
        <name>PHARMACIE DU SAHEL22 29 16 56Maroua:</name>
        <description>Ville: Maroua
Région: Extrême-Nord
Source coords: city_center</description>
        <styleUrl>#cityStyle</styleUrl>
        <Point>
          <coordinates>14.317577989385114,10.598671538966615,0</coordinates>
        </Point>
      </Placemark>
      <Placemark>
        <name>PHARMACIE DU CENTRE MAROUA</name>
        <description>Téléphone: 222 29 12 09
Ville: Maroua
Région: Extrême-Nord
Source coords: city_center</description>
        <styleUrl>#cityStyle</styleUrl>
        <Point>
          <coordinates>14.31926588393923,10.597761209223473,0</coordinates>
        </Point>
      </Placemark>
      <Placemark>
        <name>PHARMACIE DU BOULEVARD</name>
        <description>Téléphone: 222 29 32 31
Ville: Maroua
Région: Extrême-Nord
Source coords: osm</description>
        <styleUrl>#osmStyle</styleUrl>
        <Point>
          <coordinates>14.3218412,10.5941316,0</coordinates>
        </Point>
      </Placemark>
      <Placemark>
        <name>PHARMACIE DE MAROUA6</name>
        <description>Téléphone: 222 29 33 14
Ville: Maroua
Région: Extrême-Nord
Source coords: city_center</description>
        <styleUrl>#cityStyle</styleUrl>
        <Point>
          <coordinates>14.320388727439717,10.595918317407504,0</coordinates>
        </Point>
      </Placemark>
      <Placemark>
        <name>PHARMACIE DOMAYO SARL</name>
        <description>Téléphone: 699 59 84 83
Ville: Maroua
Région: Extrême-Nord
Source coords: city_center</description>
        <styleUrl>#cityStyle</styleUrl>
        <Point>
          <coordinates>14.320446487134127,10.593519265817264,0</coordinates>
        </Point>
      </Placemark>
    </Folder>
    <Folder>
      <name>Bafoussam (8 pharmacies)</name>
      <Placemark>
        <name>NOUVELLE PHARMACIE DU BENIN</name>
        <description>Adresse: Carrefour Auberge
Téléphone: 233 44 15 57
Ville: Bafoussam
Région: Ouest
Source coords: city_center</description>
        <styleUrl>#cityStyle</styleUrl>
        <Point>
          <coordinates>10.4179,5.4767,0</coordinates>
        </Point>
      </Placemark>
      <Placemark>
        <name>PHARMACIE AMIENOISE</name>
        <description>Adresse: Place des Fêtes
Téléphone: 233 44 51 10
Ville: Bafoussam
Région: Ouest
Source coords: osm</description>
        <styleUrl>#osmStyle</styleUrl>
        <Point>
          <coordinates>10.4174216,5.470068,0</coordinates>
        </Point>
      </Placemark>
      <Placemark>
        <name>PHARMACIE ANGE GABRIEL</name>
        <description>Adresse: Feu Rouge
Téléphone: 233 44 18 33
Ville: Bafoussam
Région: Ouest
Source coords: city_center</description>
        <styleUrl>#cityStyle</styleUrl>
        <Point>
          <coordinates>10.419577989385115,5.4767715389666165,0</coordinates>
        </Point>
      </Placemark>
      <Placemark>
        <name>PHARMACIE BINAM</name>
        <description>Adresse: Route Foumban
Téléphone: 233 44 32 31
Ville: Bafoussam
Région: Ouest
Source coords: osm</description>
        <styleUrl>#osmStyle</styleUrl>
        <Point>
          <coordinates>10.4291904,5.4827335,0</coordinates>
        </Point>
      </Placemark>
      <Placemark>
        <name>PHARMACIE DE LA MIFI</name>
        <description>Adresse: Carrefour TOTAL 677 75 09 38
Téléphone: 233 44 11 63
Ville: Bafoussam
Région: Ouest
Source coords: city_center</description>
        <styleUrl>#cityStyle</styleUrl>
        <Point>
          <coordinates>10.421265883939231,5.475861209223472,0</coordinates>
        </Point>
      </Placemark>
      <Placemark>
        <name>PHARMACIE DE LA VISION</name>
        <description>Adresse: Sens Interdit 699 51 25 16
Téléphone: 233 44 63 15
Ville: Bafoussam
Région: Ouest
Source coords: city_center</description>
        <styleUrl>#cityStyle</styleUrl>
        <Point>
          <coordinates>10.422388727439717,5.474018317407505,0</coordinates>
        </Point>
      </Placemark>
      <Placemark>
        <name>PHARMACIE DES MARTYRS</name>
        <description>Adresse: Carrefour BIAO 699 92 57 69
Téléphone: 233 44 66 80
Ville: Bafoussam
Région: Ouest
Source coords: osm</description>
        <styleUrl>#osmStyle</styleUrl>
        <Point>
          <coordinates>10.416742,5.4777978,0</coordinates>
        </Point>
      </Placemark>
      <Placemark>
        <name>PHARMACIE DES MONTAGNES</name>
        <description>Adresse: Face UCCAO 699 99 41 94
Téléphone: 233 44 44 56
Ville: Bafoussam
Région: Ouest
Source coords: osm</description>
        <styleUrl>#osmStyle</styleUrl>
        <Point>
          <coordinates>10.4187008,5.4761661,0</coordinates>
        </Point>
      </Placemark>
    </Folder>
    <Folder>
      <name>Ngaoundere (7 pharmacies)</name>
      <Placemark>
        <name>PHARMACIE CARREFOUR AOUDI</name>
        <description>Adresse: 677 71 64 93
Téléphone: 233 08 08 48
Ville: Ngaoundere
Région: Adamaoua
Source coords: city_center</description>
        <styleUrl>#cityStyle</styleUrl>
        <Point>
          <coordinates>13.5833,7.3197,0</coordinates>
        </Point>
      </Placemark>
      <Placemark>
        <name>PHARMACIE ADAMA</name>
        <description>Téléphone: 242 25 24 64
Ville: Ngaoundere
Région: Adamaoua
Source coords: osm</description>
        <styleUrl>#osmStyle</styleUrl>
        <Point>
          <coordinates>13.5751594,7.3210125,0</coordinates>
        </Point>
      </Placemark>
      <Placemark>
        <name>PHARMACIE DE L'ESPERANCE</name>
        <description>Téléphone: 222 25 11 76
Ville: Ngaoundere
Région: Adamaoua
Source coords: osm</description>
        <styleUrl>#osmStyle</styleUrl>
        <Point>
          <coordinates>13.5790409,7.3211319,0</coordinates>
        </Point>
      </Placemark>
      <Placemark>
        <name>PHARMACIE DE L'ENTENTE22 19 80 51Ngaoundéré:</name>
        <description>Ville: Ngaoundere
Région: Adamaoua
Source coords: city_center</description>
        <styleUrl>#cityStyle</styleUrl>
        <Point>
          <coordinates>13.584977989385115,7.3197715389666165,0</coordinates>
        </Point>
      </Placemark>
      <Placemark>
        <name>PHARMACIE DE LA GARE NGAOUNDERE</name>
        <description>Adresse: 694 01 01 45
Téléphone: 222 25 16 88
Ville: Ngaoundere
Région: Adamaoua
Source coords: city_center</description>
        <styleUrl>#cityStyle</styleUrl>
        <Point>
          <coordinates>13.586665883939231,7.318861209223472,0</coordinates>
        </Point>
      </Placemark>
      <Placemark>
        <name>PHARMACIE GRAND MARCHE NGAOUNDERE22 15 78 44Ngaoundéré:</name>
        <description>Téléphone: 699 10 05 54
Ville: Ngaoundere
Région: Adamaoua
Source coords: city_center</description>
        <styleUrl>#cityStyle</styleUrl>
        <Point>
          <coordinates>13.587788727439717,7.317018317407505,0</coordinates>
        </Point>
      </Placemark>
      <Placemark>
        <name>PHARMACIE LA VINA</name>
        <description>Téléphone: 222 25 14 68
Ville: Ngaoundere
Région: Adamaoua
Source coords: city_center</description>
        <styleUrl>#cityStyle</styleUrl>
        <Point>
          <coordinates>13.587846487134128,7.314619265817265,0</coordinates>
        </Point>
      </Placemark>
    </Folder>
    <Folder>
      <name>Bertoua (6 pharmacies)</name>
      <Placemark>
        <name>PHARMACIE LA GLOIRE</name>
        <description>Adresse: À coté du SENAJES, quartier TINDAMBA6222 24 23 23
Téléphone: 222 12 47 48
Ville: Bertoua
Région: Est
Source coords: city_center</description>
        <styleUrl>#cityStyle</styleUrl>
        <Point>
          <coordinates>13.6847,4.5802000000000005,0</coordinates>
        </Point>
      </Placemark>
      <Placemark>
        <name>PHARMACIE STELLA</name>
        <description>Adresse: Quartier BAVELE6677 42 93 49
Téléphone: 222 24 23 37
Ville: Bertoua
Région: Est
Source coords: city_center</description>
        <styleUrl>#cityStyle</styleUrl>
        <Point>
          <coordinates>13.686377989385115,4.580271538966617,0</coordinates>
        </Point>
      </Placemark>
      <Placemark>
        <name>PHARMACIE LE BRUXELLOIS</name>
        <description>Adresse: Face Délégation du Travail696 39 93 23
Téléphone: 222 24 17 17
Ville: Bertoua
Région: Est
Source coords: city_center</description>
        <styleUrl>#cityStyle</styleUrl>
        <Point>
          <coordinates>13.688065883939231,4.579361209223473,0</coordinates>
        </Point>
      </Placemark>
      <Placemark>
        <name>PHARMACIE LA GÉNÉRALE</name>
        <description>Adresse: Derrière Radio AURORE699 53 70 46
Téléphone: 222 24 21 24
Ville: Bertoua
Région: Est
Source coords: osm</description>
        <styleUrl>#osmStyle</styleUrl>
        <Point>
          <coordinates>13.6809435,4.5751983,0</coordinates>
        </Point>
      </Placemark>
      <Placemark>
        <name>PHARMACIE GALIEN</name>
        <description>Adresse: Face Légion de Gendarmerie677 89 57 58
Téléphone: 222 24 14 16
Ville: Bertoua
Région: Est
Source coords: osm</description>
        <styleUrl>#osmStyle</styleUrl>
        <Point>
          <coordinates>13.686422,4.5774887,0</coordinates>
        </Point>
      </Placemark>
      <Placemark>
        <name>PHARMACIE MOKOLO</name>
        <description>Adresse: Derrière Radio AURORE : 699 53 70 46
Téléphone: 222 24 21 24
Ville: Bertoua
Région: Est
Source coords: osm</description>
        <styleUrl>#osmStyle</styleUrl>
        <Point>
          <coordinates>13.6841366,4.579299,0</coordinates>
        </Point>
      </Placemark>
    </Folder>
    <Folder>
      <name>Buea (6 pharmacies)</name>
      <Placemark>
        <name>AMAZING PHARMACY SARL</name>
        <description>Téléphone: 233 32 32 24
Ville: Buea
Région: Sud-Ouest
Source coords: city_center</description>
        <styleUrl>#cityStyle</styleUrl>
        <Point>
          <coordinates>9.2306,4.1624,0</coordinates>
        </Point>
      </Placemark>
      <Placemark>
        <name>COMPASSIONATE HEALTH PHARMACY</name>
        <description>Adresse: 678 77 24 34
Téléphone: 233 32 25 66
Ville: Buea
Région: Sud-Ouest
Source coords: city_center</description>
        <styleUrl>#cityStyle</styleUrl>
        <Point>
          <coordinates>9.232277989385116,4.162471538966616,0</coordinates>
        </Point>
      </Placemark>
      <Placemark>
        <name>ENAMEN PHARMACY</name>
        <description>Adresse: 677 31 73 63
Téléphone: 233 32 20 11
Ville: Buea
Région: Sud-Ouest
Source coords: city_center</description>
        <styleUrl>#cityStyle</styleUrl>
        <Point>
          <coordinates>9.233965883939232,4.161561209223472,0</coordinates>
        </Point>
      </Placemark>
      <Placemark>
        <name>MOUNTAIN II PHARMACY</name>
        <description>Adresse: 243 18 42 72
Téléphone: 233 32 25 46
Ville: Buea
Région: Sud-Ouest
Source coords: city_center</description>
        <styleUrl>#cityStyle</styleUrl>
        <Point>
          <coordinates>9.235088727439718,4.1597183174075045,0</coordinates>
        </Point>
      </Placemark>
      <Placemark>
        <name>PHARMACIE SALVATION 33 32 25 45 Buea: 33 32 30 88</name>
        <description>Ville: Buea
Région: Sud-Ouest
Source coords: city_center</description>
        <styleUrl>#cityStyle</styleUrl>
        <Point>
          <coordinates>9.235146487134129,4.157319265817264,0</coordinates>
        </Point>
      </Placemark>
      <Placemark>
        <name>WINNER'S PHARMACY 33 32 33 98 Buea:</name>
        <description>Ville: Buea
Région: Sud-Ouest
Source coords: city_center</description>
        <styleUrl>#cityStyle</styleUrl>
        <Point>
          <coordinates>9.233891596792573,4.154993710114492,0</coordinates>
        </Point>
      </Placemark>
    </Folder>
    <Folder>
      <name>Dschang (5 pharmacies)</name>
      <Placemark>
        <name>PHARMACIE DE LA MENOUA</name>
        <description>Adresse: 677 77 15 95
Téléphone: 233 45 11 93
Ville: Dschang
Région: Ouest
Source coords: city_center</description>
        <styleUrl>#cityStyle</styleUrl>
        <Point>
          <coordinates>10.0667,5.453,0</coordinates>
        </Point>
      </Placemark>
      <Placemark>
        <name>PHARMACIE DE LAH</name>
        <description>Adresse: 677 81 20 85
Téléphone: 233 45 12 79
Ville: Dschang
Région: Ouest
Source coords: city_center</description>
        <styleUrl>#cityStyle</styleUrl>
        <Point>
          <coordinates>10.068377989385116,5.453071538966617,0</coordinates>
        </Point>
      </Placemark>
      <Placemark>
        <name>PHARMACIE DU CENTRE</name>
        <description>Adresse: 699 98 98 86
Téléphone: 233 45 11 94
Ville: Dschang
Région: Ouest
Source coords: osm</description>
        <styleUrl>#osmStyle</styleUrl>
        <Point>
          <coordinates>9.7219542,4.0569621,0</coordinates>
        </Point>
      </Placemark>
      <Placemark>
        <name>PHARMACIE DU MARCHE</name>
        <description>Adresse: 699 96 61 27
Téléphone: 233 45 21 37
Ville: Dschang
Région: Ouest
Source coords: city_center</description>
        <styleUrl>#cityStyle</styleUrl>
        <Point>
          <coordinates>10.070065883939233,5.452161209223473,0</coordinates>
        </Point>
      </Placemark>
      <Placemark>
        <name>PHARMACIE PERVENCHE PLUS</name>
        <description>Téléphone: 233 45 17 39
Ville: Dschang
Région: Ouest
Source coords: city_center</description>
        <styleUrl>#cityStyle</styleUrl>
        <Point>
          <coordinates>10.071188727439718,5.450318317407505,0</coordinates>
        </Point>
      </Placemark>
    </Folder>
    <Folder>
      <name>Limbe (5 pharmacies)</name>
      <Placemark>
        <name>DESTINY PHARMACY</name>
        <description>Téléphone: 233 61 24 64
Ville: Limbe
Région: Sud-Ouest
Source coords: city_center</description>
        <styleUrl>#cityStyle</styleUrl>
        <Point>
          <coordinates>9.2,4.0197,0</coordinates>
        </Point>
      </Placemark>
      <Placemark>
        <name>FAKO ATLANTIC PHARMACY</name>
        <description>Téléphone: 233 33 26 30
Ville: Limbe
Région: Sud-Ouest
Source coords: osm</description>
        <styleUrl>#osmStyle</styleUrl>
        <Point>
          <coordinates>9.2075151,4.0111107,0</coordinates>
        </Point>
      </Placemark>
      <Placemark>
        <name>LIMBE PHARMACY LTD Mile One</name>
        <description>Téléphone: 233 33 21 97
Ville: Limbe
Région: Sud-Ouest
Source coords: city_center</description>
        <styleUrl>#cityStyle</styleUrl>
        <Point>
          <coordinates>9.201677989385114,4.019771538966617,0</coordinates>
        </Point>
      </Placemark>
      <Placemark>
        <name>MEDICINE SHOPPE PHARMACY</name>
        <description>Adresse: 679 67 75 57
Téléphone: 233 33 30 73
Ville: Limbe
Région: Sud-Ouest
Source coords: city_center</description>
        <styleUrl>#cityStyle</styleUrl>
        <Point>
          <coordinates>9.203365883939231,4.018861209223473,0</coordinates>
        </Point>
      </Placemark>
      <Placemark>
        <name>PRIME PHARMACY</name>
        <description>Téléphone: 233 33 29 28
Ville: Limbe
Région: Sud-Ouest
Source coords: osm</description>
        <styleUrl>#osmStyle</styleUrl>
        <Point>
          <coordinates>9.2089792,4.0150393,0</coordinates>
        </Point>
      </Placemark>
    </Folder>
    <Folder>
      <name>Nkongsamba (4 pharmacies)</name>
      <Placemark>
        <name>PHARMACIE PRINCIPALE</name>
        <description>Téléphone: 233 49 12 11
Ville: Nkongsamba
Région: Littoral
Source coords: city_center</description>
        <styleUrl>#cityStyle</styleUrl>
        <Point>
          <coordinates>9.9333,4.953,0</coordinates>
        </Point>
      </Placemark>
      <Placemark>
        <name>PHARMACIE MANENGOUBA33 49 16 15Nkongsamba:</name>
        <description>Téléphone: 233 49 30 03
Ville: Nkongsamba
Région: Littoral
Source coords: city_center</description>
        <styleUrl>#cityStyle</styleUrl>
        <Point>
          <coordinates>9.934977989385114,4.953071538966617,0</coordinates>
        </Point>
      </Placemark>
      <Placemark>
        <name>PHARMACIE DU TEMPLE33 49 16 15Nkongsamba:</name>
        <description>Téléphone: 674 45 85 73
Ville: Nkongsamba
Région: Littoral
Source coords: city_center</description>
        <styleUrl>#cityStyle</styleUrl>
        <Point>
          <coordinates>9.93666588393923,4.952161209223473,0</coordinates>
        </Point>
      </Placemark>
      <Placemark>
        <name>PACIFIC PHARMACY33 49 24 26Nkongsamba:</name>
        <description>Téléphone: 677 70 26 31
Ville: Nkongsamba
Région: Littoral
Source coords: city_center</description>
        <styleUrl>#cityStyle</styleUrl>
        <Point>
          <coordinates>9.937788727439717,4.950318317407505,0</coordinates>
        </Point>
      </Placemark>
    </Folder>
    <Folder>
      <name>Bafang (3 pharmacies)</name>
      <Placemark>
        <name>PHARMACIE ANDRE DJONGOUE</name>
        <description>Adresse: 699 58 01 25
Téléphone: 233 48 69 51
Ville: Bafang
Région: Ouest
Source coords: city_center</description>
        <styleUrl>#cityStyle</styleUrl>
        <Point>
          <coordinates>10.1833,5.1530000000000005,0</coordinates>
        </Point>
      </Placemark>
      <Placemark>
        <name>PHARMACIE DU MARCHE BAFANG</name>
        <description>Adresse: 699 28 35 73
Téléphone: 233 48 65 28
Ville: Bafang
Région: Ouest
Source coords: city_center</description>
        <styleUrl>#cityStyle</styleUrl>
        <Point>
          <coordinates>10.184977989385114,5.153071538966617,0</coordinates>
        </Point>
      </Placemark>
      <Placemark>
        <name>PHARMACIE MOUANKEU</name>
        <description>Adresse: 699 81 78 75
Téléphone: 233 48 70 56
Ville: Bafang
Région: Ouest
Source coords: city_center</description>
        <styleUrl>#cityStyle</styleUrl>
        <Point>
          <coordinates>10.18666588393923,5.152161209223473,0</coordinates>
        </Point>
      </Placemark>
    </Folder>
    <Folder>
      <name>Edea (3 pharmacies)</name>
      <Placemark>
        <name>PHARMACIE AMBRE</name>
        <description>Adresse: EDEA
Téléphone: 222 04 01 44
Ville: Edea
Région: Littoral
Source coords: osm</description>
        <styleUrl>#osmStyle</styleUrl>
        <Point>
          <coordinates>10.1294123,3.7984985,0</coordinates>
        </Point>
      </Placemark>
      <Placemark>
        <name>PHARMACIE ARC EN CIEL</name>
        <description>Adresse: EDEA657 699 94 83
Téléphone: 233 46 41 32
Ville: Edea
Région: Littoral
Source coords: city_center</description>
        <styleUrl>#cityStyle</styleUrl>
        <Point>
          <coordinates>10.1333,3.803,0</coordinates>
        </Point>
      </Placemark>
      <Placemark>
        <name>PHARMACIE DU PEUPLE</name>
        <description>Adresse: EDEA
Téléphone: 233 14 61 79
Ville: Edea
Région: Littoral
Source coords: city_center</description>
        <styleUrl>#cityStyle</styleUrl>
        <Point>
          <coordinates>10.134977989385115,3.8030715389666163,0</coordinates>
        </Point>
      </Placemark>
    </Folder>
    <Folder>
      <name>Kousseri (3 pharmacies)</name>
      <Placemark>
        <name>PHARMACIE QUSSUR</name>
        <description>Téléphone: 675 08 69 08
Ville: Kousseri
Région: Extrême-Nord
Source coords: city_center</description>
        <styleUrl>#cityStyle</styleUrl>
        <Point>
          <coordinates>15.0333,12.0863,0</coordinates>
        </Point>
      </Placemark>
      <Placemark>
        <name>PHARMACIE DU CHARI</name>
        <description>Adresse: 675 25 43 01
Téléphone: 222 29 40 80
Ville: Kousseri
Région: Extrême-Nord
Source coords: city_center</description>
        <styleUrl>#cityStyle</styleUrl>
        <Point>
          <coordinates>15.034977989385116,12.086371538966615,0</coordinates>
        </Point>
      </Placemark>
      <Placemark>
        <name>PHARMACIE CARREFOUR AOUDI</name>
        <description>Adresse: 242 17 24 88
Téléphone: 222 29 40 82
Ville: Kousseri
Région: Extrême-Nord
Source coords: city_center</description>
        <styleUrl>#cityStyle</styleUrl>
        <Point>
          <coordinates>15.036665883939232,12.085461209223473,0</coordinates>
        </Point>
      </Placemark>
    </Folder>
    <Folder>
      <name>Kumba (3 pharmacies)</name>
      <Placemark>
        <name>CENTRAL PHARMACY</name>
        <description>Téléphone: 677 30 19 26
Ville: Kumba
Région: Sud-Ouest
Source coords: city_center</description>
        <styleUrl>#cityStyle</styleUrl>
        <Point>
          <coordinates>9.4167,4.6363,0</coordinates>
        </Point>
      </Placemark>
      <Placemark>
        <name>KUMBA CITY PHARMACY LTD</name>
        <description>Téléphone: 233 35 45 82
Ville: Kumba
Région: Sud-Ouest
Source coords: city_center</description>
        <styleUrl>#cityStyle</styleUrl>
        <Point>
          <coordinates>9.418377989385116,4.636371538966617,0</coordinates>
        </Point>
      </Placemark>
      <Placemark>
        <name>PREMIER PHARMACY</name>
        <description>Adresse: Face Weekend Bar 677 54 73 87
Téléphone: 233 35 42 47
Ville: Kumba
Région: Sud-Ouest
Source coords: city_center</description>
        <styleUrl>#cityStyle</styleUrl>
        <Point>
          <coordinates>9.420065883939232,4.635461209223473,0</coordinates>
        </Point>
      </Placemark>
    </Folder>
    <Folder>
      <name>Mbalmayo (3 pharmacies)</name>
      <Placemark>
        <name>PHARMACIE VIMLI</name>
        <description>Adresse: Mbalmayo
Téléphone: 222 04 85 38
Ville: Mbalmayo
Région: Centre
Source coords: osm</description>
        <styleUrl>#osmStyle</styleUrl>
        <Point>
          <coordinates>11.5053473,3.5208244,0</coordinates>
        </Point>
      </Placemark>
      <Placemark>
        <name>PHARMACIE NYONG</name>
        <description>Adresse: Mbalmayo
Téléphone: 697 40 54 36
Ville: Mbalmayo
Région: Centre
Source coords: city_center</description>
        <styleUrl>#cityStyle</styleUrl>
        <Point>
          <coordinates>11.5,3.5197000000000003,0</coordinates>
        </Point>
      </Placemark>
      <Placemark>
        <name>PHARMACIE PATIENCE</name>
        <description>Adresse: Mbalmayo
Téléphone: 222 28 17 56
Ville: Mbalmayo
Région: Centre
Source coords: osm</description>
        <styleUrl>#osmStyle</styleUrl>
        <Point>
          <coordinates>9.7471699,4.0811236,0</coordinates>
        </Point>
      </Placemark>
    </Folder>
    <Folder>
      <name>Obala (3 pharmacies)</name>
      <Placemark>
        <name>PHARMACIE AFAMBA</name>
        <description>Adresse: NOUVELLE GESTION
Téléphone: 222 20 68 48
Ville: Obala
Région: Centre
Source coords: osm</description>
        <styleUrl>#osmStyle</styleUrl>
        <Point>
          <coordinates>11.5351055,4.1663908,0</coordinates>
        </Point>
      </Placemark>
      <Placemark>
        <name>PHARMACIE SAINT THOMAS</name>
        <description>Adresse: Obala
Téléphone: 699 68 59 35
Ville: Obala
Région: Centre
Source coords: osm</description>
        <styleUrl>#osmStyle</styleUrl>
        <Point>
          <coordinates>11.5342753,4.1651556,0</coordinates>
        </Point>
      </Placemark>
      <Placemark>
        <name>PHARMACIE D'OBALA</name>
        <description>Adresse: Obala 677 63 98 26
Téléphone: 222 28 56 78
Ville: Obala
Région: Centre
Source coords: city_center</description>
        <styleUrl>#cityStyle</styleUrl>
        <Point>
          <coordinates>11.5333,4.1697,0</coordinates>
        </Point>
      </Placemark>
    </Folder>
    <Folder>
      <name>Ambam (2 pharmacies)</name>
      <Placemark>
        <name>PHARMACIE D'AMBAM</name>
        <description>Téléphone: 699 78 25 75
Ville: Ambam
Région: Sud
Source coords: city_center</description>
        <styleUrl>#cityStyle</styleUrl>
        <Point>
          <coordinates>11.2833,2.3863000000000003,0</coordinates>
        </Point>
      </Placemark>
      <Placemark>
        <name>PHARMACIE KYE OSSI 3 NATIONS</name>
        <description>Téléphone: 656 20 40 30
Ville: Ambam
Région: Sud
Source coords: city_center</description>
        <styleUrl>#cityStyle</styleUrl>
        <Point>
          <coordinates>11.284977989385116,2.3863715389666167,0</coordinates>
        </Point>
      </Placemark>
    </Folder>
    <Folder>
      <name>Bafia (2 pharmacies)</name>
      <Placemark>
        <name>PHARMACIE AIDA 22 28 57 70 BAFIA</name>
        <description>Téléphone: 674 14 57 57
Ville: Bafia
Région: Centre
Source coords: city_center</description>
        <styleUrl>#cityStyle</styleUrl>
        <Point>
          <coordinates>11.2333,4.753,0</coordinates>
        </Point>
      </Placemark>
      <Placemark>
        <name>PHARMACIE BASIA</name>
        <description>Adresse: BAFIA
Téléphone: 222 28 54 04
Ville: Bafia
Région: Centre
Source coords: city_center</description>
        <styleUrl>#cityStyle</styleUrl>
        <Point>
          <coordinates>11.234977989385115,4.7530715389666165,0</coordinates>
        </Point>
      </Placemark>
    </Folder>
    <Folder>
      <name>Bagangte (2 pharmacies)</name>
      <Placemark>
        <name>PHARMACIE DE L'ESPOIR</name>
        <description>Adresse: 699 55 91 34
Téléphone: 233 48 45 93
Ville: Bagangte
Région: Ouest
Source coords: osm</description>
        <styleUrl>#osmStyle</styleUrl>
        <Point>
          <coordinates>10.5208055,5.1421589,0</coordinates>
        </Point>
      </Placemark>
      <Placemark>
        <name>PHARMACIE DE LA DIGNITÉ</name>
        <description>Adresse: 677 74 25 63
Téléphone: 233 48 91 27
Ville: Bagangte
Région: Ouest
Source coords: city_center</description>
        <styleUrl>#cityStyle</styleUrl>
        <Point>
          <coordinates>10.5285536,5.1450279000000005,0</coordinates>
        </Point>
      </Placemark>
    </Folder>
    <Folder>
      <name>Bandjoun (2 pharmacies)</name>
      <Placemark>
        <name>PHARMACIE DU KOUNG-KHI</name>
        <description>Téléphone: 699 78 41 98
Ville: Bandjoun
Région: Ouest
Source coords: city_center</description>
        <styleUrl>#cityStyle</styleUrl>
        <Point>
          <coordinates>10.4121552,5.3778573000000005,0</coordinates>
        </Point>
      </Placemark>
      <Placemark>
        <name>PHARMACIE NEW TODJOM</name>
        <description>Téléphone: 699 82 11 12
Ville: Bandjoun
Région: Ouest
Source coords: city_center</description>
        <styleUrl>#cityStyle</styleUrl>
        <Point>
          <coordinates>10.413833189385116,5.377928838966617,0</coordinates>
        </Point>
      </Placemark>
    </Folder>
    <Folder>
      <name>Ebolowa (2 pharmacies)</name>
      <Placemark>
        <name>PHARMACIE DE LA MVILA</name>
        <description>Téléphone: 222 28 49 10
Ville: Ebolowa
Région: Sud
Source coords: osm</description>
        <styleUrl>#osmStyle</styleUrl>
        <Point>
          <coordinates>11.1516224,2.9190833,0</coordinates>
        </Point>
      </Placemark>
      <Placemark>
        <name>PHARMACIE DU BERCAIL</name>
        <description>Adresse: 222 66 08 99
Téléphone: 222 00 87 37
Ville: Ebolowa
Région: Sud
Source coords: osm</description>
        <styleUrl>#osmStyle</styleUrl>
        <Point>
          <coordinates>11.1505664,2.9208897,0</coordinates>
        </Point>
      </Placemark>
    </Folder>
    <Folder>
      <name>Mbanga (2 pharmacies)</name>
      <Placemark>
        <name>PHARMACIE NOVA MACK</name>
        <description>Adresse: 677 66 73 37
Téléphone: 243 77 46 95
Ville: Mbanga
Région: Littoral
Source coords: city_center</description>
        <styleUrl>#cityStyle</styleUrl>
        <Point>
          <coordinates>9.5657366,4.502078,0</coordinates>
        </Point>
      </Placemark>
      <Placemark>
        <name>PHARMACIE DE MBANGA33 49 16 15Mbanga:</name>
        <description>Téléphone: 699 75 47 55
Ville: Mbanga
Région: Littoral
Source coords: city_center</description>
        <styleUrl>#cityStyle</styleUrl>
        <Point>
          <coordinates>9.567414589385114,4.502149538966616,0</coordinates>
        </Point>
      </Placemark>
    </Folder>
    <Folder>
      <name>Mbouda (2 pharmacies)</name>
      <Placemark>
        <name>PHARMACIE DU BIEN ETRE PLUS</name>
        <description>Adresse: 699 66 46 91
Téléphone: 696 92 72 22
Ville: Mbouda
Région: Ouest
Source coords: city_center</description>
        <styleUrl>#cityStyle</styleUrl>
        <Point>
          <coordinates>10.25,5.6363,0</coordinates>
        </Point>
      </Placemark>
      <Placemark>
        <name>PHARMACIE TOP ETOILE</name>
        <description>Adresse: 699 98 82 36
Téléphone: 233 48 51 19
Ville: Mbouda
Région: Ouest
Source coords: city_center</description>
        <styleUrl>#cityStyle</styleUrl>
        <Point>
          <coordinates>10.251677989385115,5.636371538966617,0</coordinates>
        </Point>
      </Placemark>
    </Folder>
    <Folder>
      <name>Muyuka (2 pharmacies)</name>
      <Placemark>
        <name>MIDLAND PHARMACY</name>
        <description>Téléphone: 670 53 18 60
Ville: Muyuka
Région: Sud-Ouest
Source coords: city_center</description>
        <styleUrl>#cityStyle</styleUrl>
        <Point>
          <coordinates>9.4,4.2863,0</coordinates>
        </Point>
      </Placemark>
      <Placemark>
        <name>PHARMACIE DU SOURIRE</name>
        <description>Téléphone: 699 81 46 35
Ville: Muyuka
Région: Sud-Ouest
Source coords: city_center</description>
        <styleUrl>#cityStyle</styleUrl>
        <Point>
          <coordinates>9.401677989385115,4.286371538966616,0</coordinates>
        </Point>
      </Placemark>
    </Folder>
    <Folder>
      <name>Sa A (2 pharmacies)</name>
      <Placemark>
        <name>PHARMACIE DE LA RENAISSANCE</name>
        <description>Téléphone: 677 98 20 76
Ville: Sa A
Région: Centre
Source coords: osm</description>
        <styleUrl>#osmStyle</styleUrl>
        <Point>
          <coordinates>11.1549474,2.923978,0</coordinates>
        </Point>
      </Placemark>
      <Placemark>
        <name>PHARMACIE de Sa'a</name>
        <description>Adresse: Sa'a
Téléphone: 222 28 58 77
Ville: Sa A
Région: Centre
Source coords: osm</description>
        <styleUrl>#osmStyle</styleUrl>
        <Point>
          <coordinates>11.4399521,4.3623152,0</coordinates>
        </Point>
      </Placemark>
    </Folder>
    <Folder>
      <name>Yagoua (2 pharmacies)</name>
      <Placemark>
        <name>PHARMACIE DU MAYO DANAY</name>
        <description>Téléphone: 222 29 65 20
Ville: Yagoua
Région: Extrême-Nord
Source coords: osm</description>
        <styleUrl>#osmStyle</styleUrl>
        <Point>
          <coordinates>15.2307747,10.3431214,0</coordinates>
        </Point>
      </Placemark>
      <Placemark>
        <name>PHARMACIE DU BON SECOURS</name>
        <description>Adresse: 677 73 68 82
Téléphone: 222 20 25 19
Ville: Yagoua
Région: Extrême-Nord
Source coords: city_center</description>
        <styleUrl>#cityStyle</styleUrl>
        <Point>
          <coordinates>15.2265866,10.3474296,0</coordinates>
        </Point>
      </Placemark>
    </Folder>
    <Folder>
      <name>Abong Mbang (1 pharmacies)</name>
      <Placemark>
        <name>PHARMACIE DE L'ESPERANCE</name>
        <description>Téléphone: 698 00 96 72
Ville: Abong Mbang
Région: Est
Source coords: osm</description>
        <styleUrl>#osmStyle</styleUrl>
        <Point>
          <coordinates>13.5790409,7.3211319,0</coordinates>
        </Point>
      </Placemark>
    </Folder>
    <Folder>
      <name>Bandja (1 pharmacies)</name>
      <Placemark>
        <name>PHARMACIE LE VRAI MEDICAMENT</name>
        <description>Téléphone: 677 65 92 62
Ville: Bandja
Région: Ouest
Source coords: city_center</description>
        <styleUrl>#cityStyle</styleUrl>
        <Point>
          <coordinates>10.2288462,5.2679943,0</coordinates>
        </Point>
      </Placemark>
    </Folder>
    <Folder>
      <name>Banyo (1 pharmacies)</name>
      <Placemark>
        <name>PHARMACIE DU MAYO BANYO</name>
        <description>Adresse: 695 20 97 01
Téléphone: 699 52 24 77
Ville: Banyo
Région: Adamaoua
Source coords: city_center</description>
        <styleUrl>#cityStyle</styleUrl>
        <Point>
          <coordinates>11.8167,6.753,0</coordinates>
        </Point>
      </Placemark>
    </Folder>
    <Folder>
      <name>Batouri (1 pharmacies)</name>
      <Placemark>
        <name>ORIENT PHARMACY</name>
        <description>Adresse: :
Téléphone: 242 63 56 33
Ville: Batouri
Région: Est
Source coords: city_center</description>
        <styleUrl>#cityStyle</styleUrl>
        <Point>
          <coordinates>14.35,4.4363,0</coordinates>
        </Point>
      </Placemark>
    </Folder>
    <Folder>
      <name>Figuil (1 pharmacies)</name>
      <Placemark>
        <name>PHARMACIE DU CARREFOUR</name>
        <description>Adresse: 679 62 14 30
Téléphone: 222 27 56 97
Ville: Figuil
Région: Nord
Source coords: city_center</description>
        <styleUrl>#cityStyle</styleUrl>
        <Point>
          <coordinates>13.959974,9.7635307,0</coordinates>
        </Point>
      </Placemark>
    </Folder>
    <Folder>
      <name>Foumban (1 pharmacies)</name>
      <Placemark>
        <name>PHARMACIE CENTRALE</name>
        <description>Téléphone: 699 45 19 44
Ville: Foumban
Région: Ouest
Source coords: city_center</description>
        <styleUrl>#cityStyle</styleUrl>
        <Point>
          <coordinates>10.9,5.7363,0</coordinates>
        </Point>
      </Placemark>
    </Folder>
    <Folder>
      <name>Foumbot (1 pharmacies)</name>
      <Placemark>
        <name>PHARMACIE GRENIER/REPUBLIQUE</name>
        <description>Adresse: 699 66 46 91
Téléphone: 233 44 63 56
Ville: Foumbot
Région: Ouest
Source coords: city_center</description>
        <styleUrl>#cityStyle</styleUrl>
        <Point>
          <coordinates>10.6333,5.503,0</coordinates>
        </Point>
      </Placemark>
    </Folder>
    <Folder>
      <name>Garoua Boulai (1 pharmacies)</name>
      <Placemark>
        <name>PHARMACIE DE LA FRONTIÈRE</name>
        <description>Téléphone: 699 22 32 99
Ville: Garoua Boulai
Région: Est
Source coords: city_center</description>
        <styleUrl>#cityStyle</styleUrl>
        <Point>
          <coordinates>14.5471591,5.8978457,0</coordinates>
        </Point>
      </Placemark>
    </Folder>
    <Folder>
      <name>Guider (1 pharmacies)</name>
      <Placemark>
        <name>PHARMACIE DE L'ESPOIR</name>
        <description>Téléphone: 222 27 50 49
Ville: Guider
Région: Nord
Source coords: osm</description>
        <styleUrl>#osmStyle</styleUrl>
        <Point>
          <coordinates>10.5208055,5.1421589,0</coordinates>
        </Point>
      </Placemark>
    </Folder>
    <Folder>
      <name>Likomba (1 pharmacies)</name>
      <Placemark>
        <name>CORE PHARMACY</name>
        <description>Téléphone: 233 35 16 09
Ville: Likomba
Région: Sud-Ouest
Source coords: city_center</description>
        <styleUrl>#cityStyle</styleUrl>
        <Point>
          <coordinates>9.25,4.0697,0</coordinates>
        </Point>
      </Placemark>
    </Folder>
    <Folder>
      <name>Loum (1 pharmacies)</name>
      <Placemark>
        <name>PHARMACIE DE LOUM</name>
        <description>Adresse: 699 53 27 91
Téléphone: 233 49 35 45
Ville: Loum
Région: Littoral
Source coords: city_center</description>
        <styleUrl>#cityStyle</styleUrl>
        <Point>
          <coordinates>9.7333,4.7197000000000005,0</coordinates>
        </Point>
      </Placemark>
    </Folder>
    <Folder>
      <name>Maga (1 pharmacies)</name>
      <Placemark>
        <name>PHARMACIE DE MAGA</name>
        <description>Téléphone: 699 51 90 59
Ville: Maga
Région: Extrême-Nord
Source coords: city_center</description>
        <styleUrl>#cityStyle</styleUrl>
        <Point>
          <coordinates>14.9526862,10.8446007,0</coordinates>
        </Point>
      </Placemark>
    </Folder>
    <Folder>
      <name>Mbandjock (1 pharmacies)</name>
      <Placemark>
        <name>PHARMACIE CANNES</name>
        <description>Adresse: Mbandjock
Téléphone: 222 23 68 30
Ville: Mbandjock
Région: Centre
Source coords: city_center</description>
        <styleUrl>#cityStyle</styleUrl>
        <Point>
          <coordinates>11.9024619,4.4491951,0</coordinates>
        </Point>
      </Placemark>
    </Folder>
    <Folder>
      <name>Mbankomo (1 pharmacies)</name>
      <Placemark>
        <name>PHARMACIE CAMERIC</name>
        <description>Téléphone: 679 79 50 79
Ville: Mbankomo
Région: Centre
Source coords: city_center</description>
        <styleUrl>#cityStyle</styleUrl>
        <Point>
          <coordinates>11.4024031,3.7909071,0</coordinates>
        </Point>
      </Placemark>
    </Folder>
    <Folder>
      <name>Mbengwy (1 pharmacies)</name>
      <Placemark>
        <name>LIBERTY PHARMACY</name>
        <description>Adresse: 677 68 41 52
Téléphone: 222 27 56 97
Ville: Mbengwy
Région: Nord-Ouest
Source coords: city_center</description>
        <styleUrl>#cityStyle</styleUrl>
        <Point>
          <coordinates>11.5021,3.851,0</coordinates>
        </Point>
      </Placemark>
    </Folder>
    <Folder>
      <name>Melong (1 pharmacies)</name>
      <Placemark>
        <name>PHARMACIE DE MELONGMelong:</name>
        <description>Ville: Melong
Région: Littoral
Source coords: city_center</description>
        <styleUrl>#cityStyle</styleUrl>
        <Point>
          <coordinates>9.949155,5.124582,0</coordinates>
        </Point>
      </Placemark>
    </Folder>
    <Folder>
      <name>Mutengene (1 pharmacies)</name>
      <Placemark>
        <name>PHARMACIE FRIVERALIN</name>
        <description>Téléphone: 699 98 35 05
Ville: Mutengene
Région: Sud-Ouest
Source coords: city_center</description>
        <styleUrl>#cityStyle</styleUrl>
        <Point>
          <coordinates>9.3167,4.0863000000000005,0</coordinates>
        </Point>
      </Placemark>
    </Folder>
    <Folder>
      <name>Sangmelima (1 pharmacies)</name>
      <Placemark>
        <name>PHARMACIE ROSA PARK</name>
        <description>Adresse: Sangmelina
Téléphone: 222 47 90 51
Ville: Sangmelima
Région: Sud
Source coords: city_center</description>
        <styleUrl>#cityStyle</styleUrl>
        <Point>
          <coordinates>11.9833,2.9363,0</coordinates>
        </Point>
      </Placemark>
    </Folder>
    <Folder>
      <name>Touboro (1 pharmacies)</name>
      <Placemark>
        <name>PHARMACIE DE TOUBORO 699 36 92Touboro:</name>
        <description>Ville: Touboro
Région: Nord
Source coords: city_center</description>
        <styleUrl>#cityStyle</styleUrl>
        <Point>
          <coordinates>15.3667,7.7863,0</coordinates>
        </Point>
      </Placemark>
    </Folder>
  </Document>
</kml>